-
 nom: Perpignan
 simplename: perpignan
 loyer: 5
 animation: 5
 delinquance: 2
 internet: 4
 meteo: 5
 transport: 4
 coworking: 1
 rang: 12
 longitude: 42.69659541
 latitude: 2.89936954
 population: 121,934
 rentprice: 415€
 timetoparis: 332 minutes
 proportionrestaurants: 8
 4gcoverage: 98%
 students: 16%
 minavginternet: 94Gb/s
 nbcoworkings: 1
 temperature: 15.4° 
 precipitations: 441mm 
-
 nom: Poitiers
 simplename: poitiers
 loyer: 5
 animation: 4
 delinquance: 3
 internet: 2
 meteo: 4
 transport: 3
 coworking: 5
 rang: 13
 longitude: 46.58392077
 latitude: 0.359947653
 population: 87,918
 rentprice: 395€
 timetoparis: 96 minutes
 proportionrestaurants: 5
 4gcoverage: 97%
 students: 62%
 minavginternet: 42Gb/s
 nbcoworkings: 4
 temperature: 11.3° 
 precipitations: 554mm 
-
 nom: Rennes
 simplename: rennes
 loyer: 4
 animation: 4
 delinquance: 4
 internet: 5
 meteo: 2
 transport: 5
 coworking: 2
 rang: 14
 longitude: 48.11197912
 latitude: -1.681864491
 population: 215,366
 rentprice: 490€
 timetoparis: 91 minutes
 proportionrestaurants: 6
 4gcoverage: 99%
 students: 60%
 minavginternet: 99Gb/s
 nbcoworkings: 4
 temperature: 11.2° 
 precipitations: 670mm 
-
 nom: Toulon
 simplename: toulon
 loyer: 4
 animation: 4
 delinquance: 3
 internet: 4
 meteo: 5
 transport: 4
 coworking: 2
 rang: 15
 longitude: 43.13615897
 latitude: 5.9323963420000005
 population: 167,479
 rentprice: 506€
 timetoparis: 301 minutes
 proportionrestaurants: 7
 4gcoverage: 97%
 students: 6%
 minavginternet: 91Gb/s
 nbcoworkings: 3
 temperature: 15.1° 
 precipitations: 338mm 
-
 nom: Grenoble
 simplename: grenoble
 loyer: 4
 animation: 5
 delinquance: 4
 internet: 4
 meteo: 1
 transport: 4
 coworking: 4
 rang: 16
 longitude: 45.18212152
 latitude: 5.721330517999999
 population: 160,649
 rentprice: 500€
 timetoparis: 183 minutes
 proportionrestaurants: 10
 4gcoverage: 94%
 students: 28%
 minavginternet: 96Gb/s
 nbcoworkings: 6
 temperature: 11.2° 
 precipitations: 898mm 
-
 nom: Villeurbanne
 simplename: villeurbanne
 loyer: 3
 animation: 4
 delinquance: 3
 internet: 5
 meteo: 5
 transport: 1
 coworking: 5
 rang: 17
 longitude: 45.77077042
 latitude: 4.888458174
 population: 148,665
 rentprice: 584.5€
 timetoparis: 131 minutes
 proportionrestaurants: 5
 4gcoverage: 99%
 students: 40%
 minavginternet: 96Gb/s
 nbcoworkings: 9
 temperature: 11.6° 
 precipitations: 592mm 
-
 nom: Montpellier
 simplename: montpellier
 loyer: 3
 animation: 5
 delinquance: 2
 internet: 4
 meteo: 5
 transport: 4
 coworking: 3
 rang: 18
 longitude: 43.61344091
 latitude: 3.8685165789999996
 population: 277,639
 rentprice: 573.25€
 timetoparis: 256 minutes
 proportionrestaurants: 8
 4gcoverage: 98%
 students: 52%
 minavginternet: 94Gb/s
 nbcoworkings: 9
 temperature: 13.9° 
 precipitations: 489mm 
-
 nom: Cannes
 simplename: cannes
 loyer: 2
 animation: 5
 delinquance: 3
 internet: 3
 meteo: 5
 transport: 3
 coworking: 5
 rang: 19
 longitude: 43.55262028
 latitude: 7.004275927
 population: 74,285
 rentprice: 688€
 timetoparis: 314 minutes
 proportionrestaurants: 16
 4gcoverage: 97%
 students: 5%
 minavginternet: 86Gb/s
 nbcoworkings: 4
 temperature: 14.5° 
 precipitations: 442mm 
-
 nom: Mulhouse
 simplename: mulhouse
 loyer: 5
 animation: 4
 delinquance: 3
 internet: 5
 meteo: 2
 transport: 4
 coworking: 2
 rang: 20
 longitude: 47.7491633
 latitude: 7.325700475
 population: 110,370
 rentprice: 447.5€
 timetoparis: 161 minutes
 proportionrestaurants: 6
 4gcoverage: 98%
 students: 16%
 minavginternet: 100Gb/s
 nbcoworkings: 2
 temperature: 10.1° 
 precipitations: 632mm 
-
 nom: Niort
 simplename: niort
 loyer: 5
 animation: 3
 delinquance: 5
 internet: 5
 meteo: 4
 transport: 3
 coworking: 0
 rang: 21
 longitude: 46.32826024
 latitude: -0.465353019
 population: 58,952
 rentprice: 400€
 timetoparis: 145 minutes
 proportionrestaurants: 5
 4gcoverage: 99%
 students: 8%
 minavginternet: 97Gb/s
 nbcoworkings: 0
 temperature: 12.2° 
 precipitations: 597mm 
-
 nom: Nîmes
 simplename: nîmes
 loyer: 4
 animation: 4
 delinquance: 3
 internet: 4
 meteo: 4
 transport: 4
 coworking: 2
 rang: 22
 longitude: 43.84493839
 latitude: 4.34806797
 population: 150,672
 rentprice: 496€
 timetoparis: 227 minutes
 proportionrestaurants: 7
 4gcoverage: 98%
 students: 17%
 minavginternet: 82Gb/s
 nbcoworkings: 3
 temperature: 13.8° 
 precipitations: 644mm 
-
 nom: Strasbourg
 simplename: strasbourg
 loyer: 3
 animation: 5
 delinquance: 3
 internet: 5
 meteo: 3
 transport: 5
 coworking: 1
 rang: 23
 longitude: 48.57126798
 latitude: 7.767526795
 population: 277,270
 rentprice: 555€
 timetoparis: 106 minutes
 proportionrestaurants: 7
 4gcoverage: 98%
 students: 41%
 minavginternet: 96Gb/s
 nbcoworkings: 4
 temperature: 10.1° 
 precipitations: 602mm 
-
 nom: Marseille
 simplename: marseille
 loyer: 3
 animation: 4
 delinquance: 2
 internet: 4
 meteo: 5
 transport: 4
 coworking: 3
 rang: 24
 longitude: 43.23408349
 latitude: 5.452496831
 population: 861,635
 rentprice: 575€
 timetoparis: 185 minutes
 proportionrestaurants: 7
 4gcoverage: 99%
 students: 13%
 minavginternet: 92Gb/s
 nbcoworkings: 23
 temperature: 14.2° 
 precipitations: 321mm 
-
 nom: Pau
 simplename: pau
 loyer: 5
 animation: 5
 delinquance: 4
 internet: 3
 meteo: 2
 transport: 4
 coworking: 1
 rang: 25
 longitude: 43.32001898
 latitude: -0.35033791799999997
 population: 77,215
 rentprice: 469€
 timetoparis: 261 minutes
 proportionrestaurants: 8
 4gcoverage: 98%
 students: 30%
 minavginternet: 76Gb/s
 nbcoworkings: 1
 temperature: 12.3° 
 precipitations: 1,073mm
  